[	{"name": "Danemark","cities": [{"name": "Copenhague","lat": 55.676098,"lng": 12.568337,"timeZone":"CET"},{"name": "Aarhus","lat": 56.162939,"lng": 10.203921,"timeZone":"CET"},{"name": "Odense","lat": 55.39594,"lng": 10.38831,"timeZone":"CET"},{"name": "Aalborg","lat": 57.046707,"lng": 9.935932,"timeZone":"CET"}]	},	{"name": "Sweden","cities": [{"name": "Stockholm","lat": 59.334591,"lng": 18.063240,"timeZone":"CET"},{"name": "Gothenburg","lat": 57.708870,"lng": 11.974560,"timeZone":"CET"},{"name": "Malmö","lat": 55.60587,"lng": 13.00073,"timeZone":"CET"},{"name": "Uppsala","lat": 59.85882,"lng": 17.63889,"timeZone":"CET"},{"name": "Västerås","lat": 59.61617,"lng": 16.55276,"timeZone":"CET"}]},{"name":"Norway","cities":[{"name":"Oslo","lat":59.911491,"lng":10.757933,"timeZone":"CET"},{"name":"Bergen","lat":60.397076,"lng":5.324383,"timeZone":"CET"},{"name":"Stavanger","lat":58.969975,"lng":5.733107,"timeZone":"CET"},{"name":"Trondheim","lat":63.446827,"lng":10.421906,"timeZone":"CET"}]}, {"name":"Finland","cities":[{"name":"Helsinki","lat":60.192059,"lng":24.945831,"timeZone":"EET"},{"name":"Tampere","lat":61.49911,"lng":23.78712,"timeZone":"EET"},{"name":"Turku","lat":60.454510,"lng":22.264824,"timeZone":"EET"},{"name":"Oulu","lat":65.01236,"lng":25.46816,"timeZone":"EET"},{"name":"Jyväskylä","lat":62.24147,"lng":25.72088,"timeZone":"EET"}]},     {"name":"Iceland","cities":[{"name":"Reykjavík","lat":64.128288,"lng":-21.827774,"timeZone":"GMT"},{"name":"Kópavogur","lat":64.111389,"lng":-21.904722,"timeZone":"GMT"},{"name":"Hafnarfjörður","lat":64.066666,"lng":-21.933332,"timeZone":"GMT"},{"name":"Akureyri","lat":65.68353,"lng":-18.0878,"timeZone":"GMT"},{"name":"Reykjanesbær","lat":64.001114,"lng":-22.551945,"timeZone":"GMT"}]}]